{
  "name": "Lagos",
  "slug": "lagos",
  "lgas": [
    {
      "name": "Agege",
      "slug": "lagos-agege",
      "markets": []
    },
    {
      "name": "Ajeromi-Ifelodun",
      "slug": "lagos-ajeromi-ifelodun",
      "markets": [
        {
          "name": "Ibafon Market, Ajeromi-Ifelodun",
          "slug": "ibafon-market",
          "coordinates": {
            "lat": 6.4408,
            "lng": 3.3268
          },
          "added_by": "ahmad-cod"
        },
        {
          "name": "Awodi-Ora Market, Ajeromi-Ifelodun",
          "slug": "awodi-ora-market",
          "coordinates": {
            "lat": 6.4539,
            "lng": 3.3268
          },
          "added_by": "ahmad-cod"
        },
        {
          "name": "Alakoto Market, Ajeromi-Ifelodun",
          "slug": "alakoto-market",
          "coordinates": {
            "lat": 6.4713,
            "lng": 3.3500
          },
          "added_by": "ahmad-cod"
        }
      ]
    },
    {
      "name": "Alimosho",
      "slug": "lagos-alimosho",
      "markets": []
    },
    {
      "name": "Amuwo-Odofin",
      "slug": "lagos-amuwo-odofin",
      "markets": []
    },
    {
      "name": "Apapa",
      "slug": "lagos-apapa",
      "markets": []
    },
    {
      "name": "Badagry",
      "slug": "lagos-badagry",
      "markets": []
    },
    {
      "name": "Epe",
      "slug": "lagos-epe",
      "markets": []
    },
    {
      "name": "Eti-Osa",
      "slug": "lagos-eti-osa",
      "markets": [
        {
          "name": "Lekki Market, Eti-Osa",
          "slug": "lekki-market",
          "coordinates": {
            "lat": 6.4698,
            "lng": 3.5852
          },
          "added_by": "ifihan"
        },
        {
          "name": "Ajah Market, Eti-Osa",
          "slug": "ajah-market",
          "coordinates": {
            "lat": 6.4698,
            "lng": 3.5986
          },
          "added_by": "ifihan"
        }
      ]
    },
    {
      "name": "Ibeju-Lekki",
      "slug": "lagos-ibeju-lekki",
      "markets": []
    },
    {
      "name": "Ifako-Ijaiye",
      "slug": "lagos-ifako-ijaiye",
      "markets": []
    },
    {
      "name": "Ikeja",
      "slug": "lagos-ikeja",
      "markets": [
        {
          "name": "Computer Village Market, Ikeja",
          "slug": "computer-village-market-ikeja",
          "coordinates": {
            "lat": 6.6018,
            "lng": 3.3515
          },
          "added_by": "ifihan"
        }
      ]
    },
    {
      "name": "Ikorodu",
      "slug": "lagos-ikorodu",
      "markets": [
        {
          "name": "Ajina, Ikorodu",
          "slug": "ajina-ikorodu",
          "coordinates": {
            "lat": 6.61075,
            "lng": 3.506055
          },
          "added_by": "Abdul-Salam15"
        }
      ]
    },
    {
      "name": "Kosofe",
      "slug": "lagos-kosofe",
      "markets": []
    },
    {
      "name": "Lagos Island",
      "slug": "lagos-lagos-island",
      "markets": [
        {
          "name": "Balogun Market, Lagos Island",
          "slug": "balogun-market",
          "coordinates": {
            "lat": 6.4541,
            "lng": 3.3947
          },
          "added_by": "ifihan"
        },
        {
          "name": "Idumota Market, Lagos Island",
          "slug": "idumota-market",
          "coordinates": {
            "lat": 6.4568,
            "lng": 3.3892
          },
          "added_by": "ifihan"
        }
      ]
    },
    {
      "name": "Lagos Mainland",
      "slug": "lagos-lagos-mainland",
      "markets": [
        {
          "name": "Oyingbo Market, Lagos Mainland",
          "slug": "oyingbo-market-lagos-mainland",
          "coordinates": {
            "lat": 6.4822167076134445,
            "lng": 3.3853597067126606
          },
          "added_by": "ehizman"
        }
      ]
    },
    {
      "name": "Mushin",
      "slug": "lagos-mushin",
      "markets": [
        {
          "name": "Mushin Market",
          "slug": "mushin-market",
          "coordinates": {
            "lat": 6.5244,
            "lng": 3.3508
          },
          "added_by": "ifihan"
        }
      ]
    },
    {
      "name": "Ojo",
      "slug": "lagos-ojo",
      "markets": [
        {
          "name": "Alaba International Central Market, Ojo",
          "slug": "alaba-international-central-market",
          "coordinates": {
            "lat": 6.467060154866623,
            "lng": 3.193351040733511
          },
          "added_by": "ehizman"
        }
      ]
    },
    {
      "name": "Oshodi-Isolo",
      "slug": "lagos-oshodi-isolo",
      "markets": [
        {
          "name": "Oshodi Market, Oshodi-Isolo",
          "slug": "oshodi-market",
          "coordinates": {
            "lat": 6.5569,
            "lng": 3.3415
          },
          "added_by": "ifihan"
        },
        {
          "name": "Mile 12 Market, Oshodi-Isolo",
          "slug": "mile-12-market",
          "coordinates": {
            "lat": 6.5963,
            "lng": 3.3933
          },
          "added_by": "ifihan"
        }
      ]
    },
    {
      "name": "Shomolu",
      "slug": "lagos-shomolu",
      "markets": [
        {
          "name": "Bajulaiye Market, Shomolu",
          "slug": "bajulaiye-market",
          "coordinates": {
            "lat": 6.532625723656187,
            "lng": 3.381950844758177
          },
          "added_by": "ehizman"
        }
      ]
    },
    {
      "name": "Surulere",
      "slug": "lagos-surulere",
      "markets": [
        {
          "name": "Tejuosho Market, Surulere",
          "slug": "tejuosho-market",
          "coordinates": {
            "lat": 6.506,
            "lng": 3.3595
          },
          "added_by": "ifihan"
        },
        {
          "name": "Aguda Market, Surulere",
          "slug": "aguda-market",
          "coordinates": {
            "lat": 6.495764,
            "lng": 3.342435
          },
          "added_by": "Uthman"
        }
      ]
    }
  ]
}
